City_ID,City,Lat,Lng,Max Temp,Humidity,Cloudiness,Wind Speed,Country,Date
0,ancud,-41.8697,-73.8203,64.29,76,9,9.46,CL,1675802046
1,hilo,19.7297,-155.09,77.29,97,100,4.61,US,1675801901
2,fort nelson,58.8053,-122.7002,33.39,72,2,5.1,CA,1675802060
3,rikitea,-23.1203,-134.9692,78.93,74,93,12.28,PF,1675801849
4,lenauheim,45.8719,20.7994,27.01,72,7,6.38,RO,1675802062
5,hermanus,-34.4187,19.2345,68.81,80,82,12.88,ZA,1675801844
6,provideniya,64.3833,-173.3,-16.55,94,57,3.69,RU,1675802070
7,khatanga,71.9667,102.5,-47.13,100,79,2.42,RU,1675801917
8,busselton,-33.65,115.3333,61.16,90,19,9.35,AU,1675801848
9,gladstone,-23.85,151.25,73.33,73,18,6.91,AU,1675802071
10,longyearbyen,78.2186,15.6401,21.04,86,75,44.87,SJ,1675802071
11,jamestown,42.097,-79.2353,47.79,60,100,10.36,US,1675801584
12,vaitape,-16.5167,-151.75,79.99,76,29,11.34,PF,1675802072
13,cape town,-33.9258,18.4232,74.12,74,40,11.99,ZA,1675801845
14,atuona,-9.8,-139.0333,78.42,77,10,15.03,PF,1675801868
15,rocha,-34.4833,-54.3333,79.86,52,47,14.9,UY,1675802074
16,vaini,-21.2,-175.2,79.72,79,56,14.32,TO,1675801841
17,la union,-5.4,-80.75,87.26,46,25,19.93,PE,1675802075
18,upernavik,72.7868,-56.1549,-17.23,96,96,3.09,GL,1675801842
19,marsh harbour,26.5412,-77.0636,71.69,62,4,17.02,BS,1675801968
20,ribas do rio pardo,-20.4431,-53.7592,75.9,87,100,3.89,BR,1675802078
21,los llanos de aridane,28.6585,-17.9182,56.95,79,40,12.66,ES,1675802081
22,parati,-23.2178,-44.7131,75.96,97,100,0.4,BR,1675802081
23,aligarh,27.8833,78.0833,54.1,51,0,8.32,IN,1675802082
24,aksu,41.1231,80.2644,24.35,75,4,6.22,CN,1675802083
25,kungurtug,50.5994,97.5228,-13.65,98,26,1.83,RU,1675802083
26,east london,-33.0153,27.9116,71.94,86,100,11.41,ZA,1675801911
27,luanda,-8.8368,13.2343,80.6,74,75,9.22,AO,1675802040
28,tautira,-17.7333,-149.15,79.45,68,0,6.67,PF,1675801873
29,itaituba,-4.2761,-55.9836,79.54,93,99,0.4,BR,1675802084
30,hithadhoo,-0.6,73.0833,81.27,69,99,7.99,MV,1675801982
31,avarua,-21.2078,-159.775,82.45,78,75,11.5,CK,1675801913
32,chokurdakh,70.6333,147.9167,-36.18,99,99,4.21,RU,1675801845
33,toora-khem,52.4675,96.11,-8.19,100,100,1.54,RU,1675802085
34,halifax,44.6453,-63.5724,33.22,58,84,15.99,CA,1675801672
35,paamiut,61.994,-49.6678,1.11,81,100,9.91,GL,1675801887
36,ponta do sol,32.6667,-17.1,58.01,58,14,4.56,PT,1675801959
37,kavieng,-2.5744,150.7967,81.03,78,100,7.85,PG,1675801903
38,carnarvon,-24.8667,113.6333,76.46,69,0,19.37,AU,1675801901
39,butaritari,3.0707,172.7902,81.09,80,100,22.95,KI,1675801915
40,zyryanka,65.75,150.85,-36.42,99,85,4.09,RU,1675802037
41,tual,-5.6667,132.75,82.47,74,100,21.7,ID,1675802086
42,olafsvik,64.8945,-23.7142,27.41,63,100,34.87,IS,1675801899
43,cabedelo,-6.9811,-34.8339,84.87,65,86,12.37,BR,1675802087
44,airai,-8.9266,125.4092,61.48,93,95,1.1,TL,1675801994
45,rey bouba,8.6724,14.1786,78.6,14,36,1.83,CM,1675802087
46,nipawin,53.3668,-104.0009,42.84,52,0,14.97,CA,1675802087
47,punta arenas,-53.15,-70.9167,62.62,51,75,18.41,CL,1675801838
48,falmouth,50.1544,-5.0711,41.9,93,20,4.61,GB,1675801616
49,bengkulu,-3.8004,102.2655,75.25,84,91,6.51,ID,1675801919
50,baft,29.234,56.6057,44.06,76,69,11.72,IR,1675802088
51,ushuaia,-54.8,-68.3,55.11,56,87,2.91,AR,1675801857
52,lahat,-3.8,103.5333,72.57,92,100,1.86,ID,1675802089
53,bethel,41.3712,-73.414,40.35,50,0,11.5,US,1675801943
54,aklavik,68.2191,-135.0107,-22.0,76,100,4.61,CA,1675802089
55,albany,42.6001,-73.9662,39.72,43,100,4.0,US,1675801617
56,souillac,-20.5167,57.5167,79.18,83,40,13.8,MU,1675802089
57,hami,42.8,93.45,33.1,53,100,4.97,CN,1675802090
58,castro,-24.7911,-50.0119,72.05,76,12,8.05,BR,1675801954
59,marck,50.949,1.9433,34.0,69,43,5.73,FR,1675802040
60,lata,40.1629,-8.3327,52.81,75,3,3.33,PT,1675802036
61,vardo,70.3705,31.1107,31.98,80,0,29.93,NO,1675802090
62,mount gambier,-37.8333,140.7667,54.3,85,5,7.2,AU,1675802091
63,ekhabi,53.5102,142.9671,-14.03,96,100,4.79,RU,1675802091
64,yarada,17.65,83.2667,70.12,100,20,2.3,IN,1675801956
65,port hedland,-20.3167,118.5667,82.45,83,3,0.0,AU,1675802092
66,qaanaaq,77.484,-69.3632,-22.85,64,100,5.12,GL,1675801847
67,fairbanks,64.8378,-147.7164,5.81,82,75,0.0,US,1675802034
68,bairiki,1.3292,172.9752,82.4,78,40,12.66,KI,1675802092
69,beloha,-25.1667,45.05,73.33,84,100,7.05,MG,1675802092
70,bredasdorp,-34.5322,20.0403,67.89,73,99,9.69,ZA,1675801978
71,lebu,-37.6167,-73.65,63.19,73,0,17.81,CL,1675801907
72,keuruu,62.2667,24.7,32.18,97,100,5.39,FI,1675802093
73,cherskiy,68.75,161.3,-32.35,99,100,5.37,RU,1675801860
74,jiuquan,39.7432,98.5174,28.24,45,100,2.3,CN,1675801965
75,plavsk,53.7094,37.2919,12.78,97,23,2.64,RU,1675802094
76,kapaa,22.0752,-159.319,78.78,87,75,11.5,US,1675801916
77,la rioja,42.25,-2.5,29.98,95,82,4.34,ES,1675802094
78,hobart,-42.8794,147.3294,55.26,71,75,5.75,AU,1675801811
79,batemans bay,-35.7167,150.1833,66.09,92,98,4.05,AU,1675801972
80,thompson,55.7435,-97.8558,3.85,93,100,7.34,CA,1675801608
81,hongjiang,27.11,109.9956,47.68,98,100,2.33,CN,1675802095
82,lulea,65.5842,22.1547,35.67,69,0,3.44,SE,1675802095
83,lahij,13.1667,44.5833,71.08,62,12,3.6,YE,1675802095
84,port blair,11.6667,92.75,78.84,78,40,2.3,IN,1675802096
85,victoria,22.2855,114.1577,66.38,92,95,8.01,HK,1675801693
86,port elizabeth,-33.918,25.5701,73.09,92,100,5.01,ZA,1675801916
87,bubaque,11.2833,-15.8333,75.34,68,50,15.61,GW,1675802096
88,mataura,-46.1927,168.8643,48.47,88,86,8.01,NZ,1675801855
89,cockburn town,21.4612,-71.1419,77.41,74,0,21.03,TC,1675802097
90,iqaluit,63.7506,-68.5145,-27.31,67,100,5.99,CA,1675801901
91,aksarka,66.5606,67.7975,-1.91,90,100,15.1,RU,1675802097
92,alofi,-19.0595,-169.9187,73.29,100,100,5.75,NU,1675802097
93,yellowknife,62.456,-114.3525,-1.68,71,75,6.91,CA,1675801835
94,lock haven,41.137,-77.4469,45.63,57,100,6.44,US,1675802098
95,mahebourg,-20.4081,57.7,79.25,83,40,13.8,MU,1675802098
96,flin flon,54.7682,-101.865,15.64,73,100,8.05,CA,1675802099
97,ribeira grande,38.5167,-28.7,54.77,62,20,16.11,PT,1675801852
98,kaeo,-35.1,173.7833,63.32,96,64,4.74,NZ,1675802099
99,mehamn,71.0357,27.8492,37.35,65,40,21.85,NO,1675802100
100,hamilton,39.1834,-84.5333,56.03,79,100,11.5,US,1675801456
101,beringovskiy,63.05,179.3167,-21.08,96,91,7.49,RU,1675802100
102,tiznit,29.5833,-9.5,48.92,82,9,2.48,MA,1675802100
103,saint-philippe,-21.3585,55.7679,78.39,85,92,13.33,RE,1675801846
104,nikolskoye,59.7035,30.7861,28.29,89,98,10.0,RU,1675801920
105,kuna,43.4918,-116.4201,48.22,56,0,8.05,US,1675802102
106,sitka,57.0531,-135.33,37.29,81,75,3.44,US,1675801948
107,karasjok,69.4719,25.5112,31.8,71,41,28.25,NO,1675802107
108,pangnirtung,66.1451,-65.7125,-29.2,75,0,2.3,CA,1675802112
109,torrington,41.8007,-73.1212,39.69,42,100,5.99,US,1675802116
110,kawalu,-7.3817,108.2082,72.23,95,100,2.19,ID,1675802116
111,norman wells,65.282,-126.8329,-0.94,94,100,2.51,CA,1675801914
112,sao filipe,14.8961,-24.4956,68.99,64,2,15.82,CV,1675801970
113,srivardhan,18.0333,73.0167,70.63,65,56,4.43,IN,1675802117
114,new norfolk,-42.7826,147.0587,54.9,65,9,1.07,AU,1675801912
115,vanersborg,58.3807,12.3234,41.58,93,100,11.5,SE,1675802117
116,georgetown,5.4112,100.3354,75.25,89,87,8.05,MY,1675801529
117,saint george,37.1041,-113.5841,52.43,37,0,4.0,US,1675801861
118,bereda,43.2686,-7.5406,39.42,88,81,8.86,ES,1675802118
119,tabas,33.5959,56.9244,56.52,64,7,11.63,IR,1675802119
120,tiksi,71.6872,128.8694,-24.79,99,100,3.67,RU,1675801853
121,ambanja,-13.6833,48.45,74.16,94,100,3.09,MG,1675802123
122,puerto ayora,-0.7393,-90.3518,84.16,89,27,13.0,EC,1675801968
123,luderitz,-26.6481,15.1594,68.14,77,1,20.42,NA,1675801934
124,makakilo city,21.3469,-158.0858,77.32,75,100,11.5,US,1675802125
125,kaitangata,-46.2817,169.8464,49.24,87,98,12.24,NZ,1675801970
126,barrow,71.2906,-156.7887,-7.58,77,100,9.22,US,1675801847
127,faanui,-16.4833,-151.75,79.92,76,28,11.32,PF,1675801965
128,bushenyi,-0.5853,30.2114,62.78,62,88,0.69,UG,1675802129
129,chumikan,54.7183,135.315,-25.15,88,25,9.55,RU,1675802131
130,kismayo,-0.3582,42.5454,76.28,88,49,15.19,SO,1675802136
131,christchurch,-43.5333,172.6333,64.6,66,75,14.97,NZ,1675802133
132,narsaq,60.9167,-46.05,-1.98,70,0,6.53,GL,1675801967
133,westport,41.1415,-73.3579,40.55,59,100,5.01,US,1675801919
134,inirida,3.8653,-67.9239,84.4,70,41,2.44,CO,1675802137
135,berdigestyakh,62.0989,126.6992,-42.2,100,100,1.25,RU,1675802000
136,ulvik,60.5672,6.9187,40.84,99,100,3.69,NO,1675802138
137,usinsk,65.9939,57.5281,9.68,94,100,28.36,RU,1675802138
138,cranbrook,49.4999,-115.7688,37.36,94,92,6.93,CA,1675802029
139,tarimoro,20.2833,-100.75,81.46,15,6,4.92,MX,1675802140
140,vanimo,-2.6741,141.3028,75.96,95,100,4.92,PG,1675802141
141,santa maria,-29.6842,-53.8069,95.7,18,0,4.23,BR,1675801896
142,oktyabrskoye,43.0645,44.7417,15.94,92,100,8.95,RU,1675802141
143,mandalgovi,45.7625,106.2708,4.35,94,34,3.36,MN,1675801952
144,port alfred,-33.5906,26.891,71.19,90,100,1.99,ZA,1675801959
145,margate,51.3813,1.3862,37.9,65,7,5.95,GB,1675802142
146,presidencia roque saenz pena,-26.7852,-60.4388,105.42,15,47,6.44,AR,1675802082
147,leningradskiy,69.3833,178.4167,-25.06,96,100,5.7,RU,1675802142
148,codrington,-38.2667,141.9667,55.33,84,91,7.56,AU,1675802143
149,mount isa,-20.7333,139.5,76.77,100,100,5.75,AU,1675802144
150,araouane,18.9048,-3.5265,74.01,14,42,11.77,ML,1675802144
151,oum hadjer,13.2954,19.6966,76.42,15,56,13.62,TD,1675802145
152,fortuna,40.5982,-124.1573,54.66,73,84,1.01,US,1675801982
153,saskylakh,71.9167,114.0833,-30.75,100,99,1.41,RU,1675801908
154,esperance,-33.8667,121.9,68.58,68,100,10.96,AU,1675801859
155,abu kamal,34.4506,40.9171,47.12,55,98,10.67,SY,1675801888
156,ronnenberg,52.3194,9.6554,31.1,83,0,3.44,DE,1675802145
157,nanortalik,60.1432,-45.2371,5.72,69,41,23.91,GL,1675801974
158,tripoli,32.8752,13.1875,55.65,62,97,22.7,LY,1675801907
159,ornskoldsvik,63.2909,18.7153,34.75,86,100,6.91,SE,1675802146
160,lhokseumawe,5.1801,97.1507,76.32,85,99,1.48,ID,1675802146
161,mattru,7.6244,-11.8332,76.87,70,100,4.63,SL,1675802147
162,bluff,-46.6,168.3333,48.79,66,73,26.17,NZ,1675801876
163,morondava,-20.2833,44.2833,78.39,83,100,4.07,MG,1675802147
164,ontario,34.0633,-117.6509,70.79,26,0,11.99,US,1675802148
165,flinders,-34.5833,150.8552,69.19,91,99,1.99,AU,1675801978
166,saint-paul,-21.0096,55.2707,78.91,77,18,5.06,RE,1675802148
167,abeche,13.8292,20.8324,73.98,17,85,17.78,TD,1675802148
168,pitimbu,-7.4706,-34.8086,84.79,64,97,11.01,BR,1675802149
169,kyshtovka,56.555,76.6271,-2.87,100,92,4.76,RU,1675802149
170,atotonilco el grande,20.2833,-98.6667,74.35,15,2,8.32,MX,1675802150
171,tashtyp,52.7939,89.8983,16.88,97,100,1.95,RU,1675802150
172,nador,35.174,-2.9287,57.45,77,75,12.66,MA,1675802150
173,rawson,-43.3002,-65.1023,71.42,45,40,16.62,AR,1675802151
174,tongliao,43.6125,122.2653,14.22,54,0,7.49,CN,1675802151
175,sechura,-5.5569,-80.8222,83.55,57,26,18.07,PE,1675802152
176,vila,42.0304,-8.1588,36.7,68,14,5.61,PT,1675802152
177,dikson,73.5069,80.5464,-13.79,93,100,20.11,RU,1675801844
178,shache,38.4167,77.2406,30.2,64,0,7.29,CN,1675801909
179,baykit,61.67,96.37,3.09,98,100,1.77,RU,1675801905
180,champerico,14.3,-91.9167,97.34,59,48,12.41,GT,1675802153
181,kamenka,51.3223,42.7678,8.28,95,11,9.4,RU,1675802153
182,hobyo,5.3505,48.5268,76.05,78,10,13.0,SO,1675802083
183,rovaniemi,66.5,25.7167,31.41,93,0,12.66,FI,1675802154
184,flagstaff,35.1981,-111.6513,42.6,41,0,16.11,US,1675802155
185,san patricio,28.017,-97.5169,76.15,67,98,20.62,US,1675802019
186,hofn,64.2539,-15.2082,33.49,81,100,24.34,IS,1675802155
187,saint anthony,45.0205,-93.218,35.78,62,0,11.5,US,1675802156
188,sterling,39.0062,-77.4286,52.72,53,75,14.0,US,1675802066
189,qena,26.1615,32.7183,51.67,40,100,7.67,EG,1675802156
190,zatoka,46.0725,30.4654,28.89,70,88,21.59,UA,1675802157
191,rawah,34.4816,41.9093,48.72,50,63,9.15,IQ,1675802157
192,college,64.8569,-147.8028,9.21,78,75,0.0,US,1675802158
193,arraial do cabo,-22.9661,-42.0278,80.46,83,40,6.91,BR,1675801823
194,matagami,49.7502,-77.6328,21.31,86,100,12.66,CA,1675801997
195,lasa,46.6166,10.7002,31.08,72,3,2.66,IT,1675802158
196,zaranj,30.9667,61.8833,51.76,30,100,6.93,AF,1675802159
197,muroto,33.2833,134.15,52.77,77,51,8.12,JP,1675802159
198,tonstad,58.6626,6.7169,40.21,100,100,3.33,NO,1675802159
199,verkhoyansk,67.5447,133.385,-56.74,100,78,1.16,RU,1675802160
200,khargone,21.8167,75.6,67.71,32,0,3.36,IN,1675802160
201,kruisfontein,-34.0033,24.7314,70.88,82,99,2.57,ZA,1675801981
202,soe,-9.8607,124.284,65.84,92,58,3.56,ID,1675802160
203,zeya,53.75,127.2667,-29.52,96,21,2.95,RU,1675802161
204,yamada,39.4667,141.95,34.5,91,100,9.04,JP,1675802161
205,tasiilaq,65.6145,-37.6368,-0.24,39,2,24.2,GL,1675801850
206,tairua,-37.0167,175.85,68.05,65,100,10.45,NZ,1675802165
207,berlevag,70.8578,29.0864,37.4,75,0,25.32,NO,1675802166
208,dalbandin,28.8947,64.4101,60.73,23,49,1.45,PK,1675802167
209,comodoro rivadavia,-45.8667,-67.5,76.86,25,0,9.22,AR,1675802151
210,oranjemund,-28.55,16.4333,63.7,94,84,14.83,NA,1675802168
211,adrar,20.5022,-10.0711,63.68,19,89,12.24,MR,1675802169
212,novoasbest,57.7422,60.2877,-8.03,100,81,4.12,RU,1675802169
213,shelburne,44.0787,-80.2041,41.45,88,90,23.8,CA,1675802170
214,bambanglipuro,-7.95,110.2833,74.14,94,100,2.75,ID,1675802170
215,rajpipla,21.8667,73.5,70.38,25,0,5.66,IN,1675802171
216,longido,-2.7333,36.6833,69.58,65,97,8.55,TZ,1675802172
217,patiya,22.2931,91.9762,58.51,83,0,4.92,BD,1675802173
218,coihaique,-45.5752,-72.0662,75.15,46,40,9.22,CL,1675801989
219,pevek,69.7008,170.3133,-22.23,94,100,3.13,RU,1675801906
220,nemuro,43.3236,145.575,23.41,80,66,9.64,JP,1675801897
221,sinnamary,5.3833,-52.95,77.68,87,32,12.03,GF,1675802174
222,tongchuan,35.0806,109.0897,41.47,47,100,6.98,CN,1675802175
223,constitucion,-35.3333,-72.4167,69.84,56,12,8.48,CL,1675801852
224,nelson bay,-32.7167,152.15,73.99,84,34,7.0,AU,1675801856
225,antalaha,-14.9003,50.2788,74.28,90,90,5.88,MG,1675802177
226,moengo,5.6167,-54.4,78.35,81,51,6.55,SR,1675802182
227,prykolotne,50.1604,37.3474,14.41,88,8,13.11,UA,1675802183
228,severo-kurilsk,50.6789,156.125,20.64,63,67,11.5,RU,1675801985
229,rio grande,-32.035,-52.0986,87.91,62,10,15.17,BR,1675801854
230,olonets,60.9847,32.9698,25.93,92,100,11.36,RU,1675802184
231,puerto asis,0.5133,-76.5007,84.15,61,55,2.08,CO,1675802054
232,baillif,16.0202,-61.7463,76.5,73,4,13.42,GP,1675802185
233,doha,25.2867,51.5333,71.58,56,0,6.91,QA,1675802185
234,kodiak,57.79,-152.4072,27.91,59,0,14.97,US,1675801966
235,iquique,-20.2208,-70.1431,78.84,73,17,9.4,CL,1675802186
236,kazanskaya,45.4106,40.4361,23.38,93,100,14.94,RU,1675802186
237,talcahuano,-36.7167,-73.1167,76.68,44,0,9.22,CL,1675802187
238,praia da vitoria,38.7333,-27.0667,55.65,71,75,14.41,PT,1675802189
239,ouallam,14.3188,2.0866,81.99,12,95,10.69,NE,1675802189
240,barraute,48.4335,-77.6328,23.27,95,100,11.39,CA,1675802190
241,gushikawa,26.3544,127.8686,67.23,94,40,0.0,JP,1675802190
242,tremembe,-22.9583,-45.5494,73.27,100,75,3.44,BR,1675802192
243,monrovia,6.3005,-10.7969,76.77,89,34,7.16,LR,1675802193
244,bambous virieux,-20.3428,57.7575,79.21,79,23,15.37,MU,1675801846
245,kutum,14.2,24.6667,59.86,28,15,11.65,SD,1675801990
246,assiniboia,49.6334,-105.9845,37.22,65,32,14.97,CA,1675802195
247,ternate,0.8,127.4,76.77,90,100,9.57,ID,1675802196
248,ende,-8.8432,121.6623,77.54,88,90,4.14,ID,1675802198
249,bakel,14.905,-12.4568,82.62,14,23,8.14,SN,1675802199
250,ewa beach,21.3156,-158.0072,78.75,75,40,11.5,US,1675802151
251,katsuura,35.1333,140.3,50.34,83,100,17.98,JP,1675801921
252,zhigansk,66.7697,123.3711,-52.24,100,94,4.34,RU,1675802199
253,port hardy,50.6996,-127.4199,44.78,87,75,4.61,CA,1675802200
254,vicuna,-30.0319,-70.7081,93.78,40,0,8.81,CL,1675802142
255,camacha,33.0833,-16.3333,56.62,67,75,13.8,PT,1675801949
256,mar del plata,-38.0023,-57.5575,84.83,88,4,14.0,AR,1675801654
257,bilma,18.6853,12.9164,69.76,19,76,6.53,NE,1675801918
258,ndele,8.4109,20.6473,77.34,14,18,5.79,CF,1675802201
259,chelmza,53.1846,18.6047,35.22,95,98,1.03,PL,1675802201
260,vila franca do campo,37.7167,-25.4333,55.81,82,72,13.31,PT,1675801972
261,tambacounda,13.7539,-13.7586,86.05,19,0,6.91,SN,1675802201
262,tupsan,9.1992,124.7769,76.44,81,100,10.54,PH,1675802202
263,umba,66.6871,34.3429,35.26,87,100,13.35,RU,1675802202
264,ilulissat,69.2167,-51.1,-9.38,70,75,5.75,GL,1675801907
265,malumfashi,11.7853,7.6218,71.91,18,100,8.95,NG,1675802203
266,leduc,53.2668,-113.552,39.06,60,75,8.05,CA,1675802203
267,grindavik,63.8424,-22.4338,27.07,68,75,23.02,IS,1675802098
268,sorong,-0.8833,131.25,79.02,84,100,8.21,ID,1675801912
269,isangel,-19.55,169.2667,80.31,81,100,0.34,VU,1675802204
270,coahuayana,18.7333,-103.6833,86.41,50,5,8.19,MX,1675802204
271,bathsheba,13.2167,-59.5167,81.21,74,75,18.41,BB,1675802171
272,homer,59.6425,-151.5483,31.89,93,100,25.99,US,1675802205
273,shwebo,22.5667,95.7,62.31,40,0,5.23,MM,1675802205
274,ballina,-28.8667,153.5667,66.78,99,100,4.9,AU,1675802205
275,bandarbeyla,9.4942,50.8122,76.17,76,56,13.76,SO,1675802163
276,canon city,38.441,-105.2424,48.61,21,0,3.44,US,1675802206
277,sambava,-14.2667,50.1667,75.42,89,77,7.25,MG,1675802206
278,west bay,19.3667,-81.4167,84.27,73,40,18.41,KY,1675802206
279,sao jose da coroa grande,-8.8978,-35.1478,79.02,68,78,8.79,BR,1675802207
280,nantucket,41.2835,-70.0995,37.0,75,100,9.22,US,1675802170
281,chara,56.9064,118.2631,-11.56,79,96,2.33,RU,1675802207
282,cabo san lucas,22.8909,-109.9124,80.62,63,20,5.75,MX,1675801890
283,tuktoyaktuk,69.4541,-133.0374,-24.05,91,100,3.65,CA,1675801850
284,pandan,14.0453,124.1694,77.29,83,100,11.48,PH,1675802145
285,jalu,29.0331,21.5482,53.56,50,100,8.59,LY,1675802208
286,honiara,-9.4333,159.95,79.86,83,99,3.22,SB,1675802208
287,civitanova marche,43.307,13.7206,39.85,50,14,1.99,IT,1675802209
288,satipo,-11.2522,-74.6386,77.59,89,98,0.63,PE,1675802209
289,oxelosund,58.6706,17.1015,35.98,87,75,8.05,SE,1675802210
290,port lincoln,-34.7333,135.8667,65.16,82,2,12.93,AU,1675801856
291,suzhou,31.3114,120.6181,42.19,80,100,4.97,CN,1675802210
292,jiangyou,31.7667,104.7167,49.46,86,100,0.45,CN,1675802210
293,belaya gora,68.5333,146.4167,-45.83,100,98,2.04,RU,1675802211
294,sola,-13.8833,167.55,81.95,77,100,14.54,VU,1675802211
295,anadyr,64.75,177.4833,-23.3,76,20,8.95,RU,1675801771
296,sao lourenco do sul,-31.3653,-51.9783,79.84,57,70,13.35,BR,1675802212
297,clyde river,70.4692,-68.5914,-26.18,96,98,3.22,CA,1675801960
298,jumla,29.2747,82.1838,34.47,76,5,3.04,NP,1675802212
299,lavrentiya,65.5833,-171.0,-14.01,90,100,3.71,RU,1675802213
300,san jeronimo,-11.9472,-75.2829,62.51,50,86,5.5,PE,1675802213
301,husavik,66.0449,-17.3389,22.82,76,38,16.6,IS,1675802138
302,sorland,67.667,12.6934,39.06,80,100,37.24,NO,1675802214
303,voyvozh,62.892,54.9635,9.93,94,100,9.51,RU,1675802214
304,arona,28.0996,-16.681,57.13,63,20,6.91,ES,1675802214
305,vila velha,-20.3297,-40.2925,82.35,82,20,17.27,BR,1675802201
306,avera,33.194,-82.5271,69.39,39,99,6.33,US,1675802215
307,leopoldina,-21.5319,-42.6431,75.25,91,100,5.35,BR,1675802215
308,itarema,-2.9248,-39.9167,79.61,78,100,12.28,BR,1675802216
309,mandiana,10.6333,-8.6833,83.52,21,83,5.06,GN,1675802216
310,maceio,-9.6658,-35.7353,81.84,69,20,11.5,BR,1675802216
311,portland,45.5234,-122.6762,48.97,90,100,18.01,US,1675802091
312,mersing,2.4312,103.8405,76.82,87,100,7.74,MY,1675802217
313,road town,18.4167,-64.6167,80.69,76,3,20.07,VG,1675802217
314,omboue,-1.5746,9.2618,78.73,82,76,5.57,GA,1675802218
315,smithers,54.7804,-127.1743,21.52,100,100,6.91,CA,1675802218
316,jacareacanga,-6.2222,-57.7528,83.88,70,53,1.52,BR,1675802191
317,tarauaca,-8.1614,-70.7656,76.8,90,97,1.97,BR,1675802218
318,takhli,15.2634,100.3438,79.75,71,1,6.67,TH,1675802219
319,lugovoy,42.9472,72.7644,29.82,76,100,5.26,KZ,1675802219
320,cabra,37.4725,-4.4421,46.2,90,100,2.75,ES,1675802219
321,najran,17.4924,44.1277,70.45,49,21,6.87,SA,1675802090
322,inhambane,-23.865,35.3833,78.19,87,2,8.75,MZ,1675802220
323,geraldton,-28.7667,114.6,66.61,88,75,10.36,AU,1675802220
324,buchanan,5.8808,-10.0467,78.24,90,70,5.14,LR,1675802222
325,solok,-0.7918,100.6593,67.57,74,94,1.7,ID,1675802222
326,imbituba,-28.24,-48.6703,77.65,75,24,8.28,BR,1675802198
327,te anau,-45.4167,167.7167,50.58,81,61,7.25,NZ,1675801916
328,asfi,32.2994,-9.2372,57.27,75,3,10.83,MA,1675802224
329,luis correia,-2.8792,-41.6669,79.9,78,100,11.39,BR,1675802226
330,kovylkino,54.0388,43.9139,-3.39,100,61,4.09,RU,1675802227
331,vestmannaeyjar,63.4427,-20.2734,31.91,63,100,37.29,IS,1675802227
332,chissamba,-12.1667,17.3333,60.71,87,97,3.06,AO,1675802229
333,popondetta,-8.7537,148.2534,74.7,93,100,1.43,PG,1675802231
334,yar-sale,66.8333,70.8333,-6.07,95,98,13.09,RU,1675802033
335,warrnambool,-38.3833,142.4833,56.75,81,99,10.25,AU,1675802233
336,korla,41.7597,86.1469,30.76,82,94,1.77,CN,1675802233
337,quatre cocos,-20.2078,57.7625,78.91,77,20,15.52,MU,1675802233
338,laredo,27.5064,-99.5075,80.89,54,75,3.44,US,1675802028
339,dhidhdhoo,6.8833,73.1,80.46,72,94,7.94,MV,1675802235
340,petropavlovsk-kamchatskiy,53.0452,158.6483,-8.81,77,0,6.71,RU,1675802235
341,hasaki,35.7333,140.8333,46.8,83,100,25.84,JP,1675802038
342,christiana,-27.914,25.1611,65.73,75,100,8.32,ZA,1675802236
343,katherine,-14.4667,132.2667,80.92,83,100,4.61,AU,1675802237
344,moba,33.2288,105.0179,35.6,95,100,3.22,CN,1675802237
345,ngunguru,-35.6167,174.5,67.96,60,97,8.77,NZ,1675801975
346,alcala de guadaira,37.3379,-5.8395,51.31,90,100,1.99,ES,1675802238
347,lom sak,16.7798,101.2422,75.51,72,15,1.34,TH,1675802239
348,chuy,-33.6971,-53.4616,79.03,59,0,14.23,UY,1675801904
349,padang,-0.9492,100.3543,75.22,71,98,4.43,ID,1675801850
350,lompoc,34.6391,-120.4579,70.02,47,0,7.0,US,1675802226
351,elko,41.0002,-115.5012,30.63,67,58,3.0,US,1675802241
352,buala,-8.145,159.5921,80.38,87,99,9.22,SB,1675802158
353,asyut,27.181,31.1837,50.05,44,91,8.03,EG,1675802242
354,teguldet,57.3064,88.1667,12.54,95,100,6.73,RU,1675802243
355,hammerfest,70.6634,23.6821,32.45,100,100,16.11,NO,1675802244
356,pilar,-9.5972,-35.9567,80.53,68,66,7.18,BR,1675802245
357,ambon,-3.6954,128.1814,77.14,94,40,3.44,ID,1675801967
358,swellendam,-34.0226,20.4417,66.97,82,100,10.54,ZA,1675802246
359,trinidad,-14.8333,-64.9,80.58,78,75,8.05,BO,1675801910
360,nuuk,64.1835,-51.7216,11.01,79,75,8.05,GL,1675802247
361,stettler,52.3168,-112.7186,33.55,75,61,6.91,CA,1675802248
362,eirunepe,-6.6603,-69.8736,81.28,84,57,1.43,BR,1675802248
363,santa fe,-31.6333,-60.7,105.03,23,0,8.01,AR,1675802082
364,kangaatsiaq,68.3065,-53.4641,-18.0,86,100,6.08,GL,1675802249
365,chunoyar,57.4467,97.3217,7.25,98,100,2.62,RU,1675802250
366,colgong,25.2667,87.2167,59.81,58,0,2.01,IN,1675802251
367,maku,39.2911,44.4521,36.21,51,75,6.91,IR,1675802251
368,biak,-0.9131,122.8766,76.28,82,100,4.03,ID,1675802252
369,fare,-16.7,-151.0167,80.55,72,20,12.37,PF,1675802252
370,standish,43.9831,-83.9589,41.0,88,100,14.47,US,1675802126
371,macapa,0.0389,-51.0664,78.78,100,100,5.75,BR,1675802253
372,yulara,-25.2406,130.9889,77.04,25,0,5.68,AU,1675802253
373,nishihara,26.1842,127.7558,67.28,86,75,10.36,JP,1675802254
374,north bend,43.4065,-124.2243,52.07,87,100,9.22,US,1675801856
375,murray bridge,-35.1167,139.2667,59.34,64,0,1.81,AU,1675802254
376,fethiye,36.6217,29.1164,42.67,55,3,10.87,TR,1675802255
377,saint-pierre,-21.3393,55.4781,78.48,78,20,10.36,RE,1675801874
378,mercedes,-34.6515,-59.4307,97.03,13,0,8.12,AR,1675802255
379,torbay,47.6666,-52.7314,23.58,82,100,23.0,CA,1675801896
380,port moresby,-9.4431,147.1797,76.3,85,100,9.22,PG,1675801956
381,pacific grove,36.6177,-121.9166,60.55,65,0,8.05,US,1675802256
382,saveh,35.0213,50.3566,45.93,52,35,20.38,IR,1675802257
383,besikduzu,41.052,39.2284,42.69,83,100,15.93,TR,1675802257
384,necochea,-38.5473,-58.7368,84.45,50,31,17.72,AR,1675802257
385,turukhansk,65.8167,87.9833,4.59,96,100,6.73,RU,1675802258
386,la romana,18.4273,-68.9728,84.56,58,75,28.77,DO,1675802258
387,say,13.1007,2.3689,86.56,12,100,9.98,NE,1675802258
388,heyang,26.1011,107.473,43.77,96,100,3.15,CN,1675802259
389,dong hoi,17.4833,106.6,71.38,97,69,5.35,VN,1675802259
390,honningsvag,70.9821,25.9704,35.35,69,100,25.32,NO,1675802259
391,ust-maya,60.4167,134.5333,-35.32,100,100,1.12,RU,1675802260
392,palora,-1.7,-77.9333,80.71,74,39,3.02,EC,1675802260
393,mayo,38.8876,-76.5119,51.67,67,0,12.66,US,1675801937
394,titisee-neustadt,47.9,8.1667,24.49,86,22,1.99,DE,1675802261
395,nosy varika,-20.5833,48.5333,74.44,88,100,4.76,MG,1675802261
396,klaksvik,62.2266,-6.589,47.32,82,100,52.48,FO,1675802262
397,gunjur,13.2019,-16.7339,73.47,56,0,8.05,GM,1675802262
398,colonia,50.9333,6.95,34.95,68,0,3.44,DE,1675801982
399,banposh,22.25,84.8,58.21,38,0,0.25,IN,1675802262
400,cabangahan,9.0781,122.9469,77.07,80,100,11.61,PH,1675802263
401,tura,25.5198,90.2201,58.62,51,6,2.84,IN,1675802220
402,saldanha,-33.0117,17.9442,65.26,89,49,23.96,ZA,1675801885
403,trelew,-43.249,-65.3051,76.93,31,45,17.92,AR,1675802234
404,baijiantan,45.6333,85.1833,11.43,95,100,1.59,CN,1675802264
405,ewo,-0.8725,14.8206,77.59,66,83,2.84,CG,1675802264
406,guerrero negro,27.9769,-114.0611,70.3,20,1,3.89,MX,1675801844
407,masindi,1.6744,31.715,76.8,32,48,2.89,UG,1675802265
408,sussex,41.1834,-74.6663,40.6,56,0,9.22,US,1675802265
409,havoysund,70.9963,24.6622,35.83,70,59,31.25,NO,1675802266
410,lamu,-2.2717,40.902,79.02,88,43,11.99,KE,1675802266
411,birjand,32.8663,59.2211,48.67,66,75,9.22,IR,1675802266
412,rio muerto,27.4167,-110.2333,73.92,10,24,17.56,MX,1675802268
413,nichinan,31.6,131.3667,53.04,89,100,3.94,JP,1675802268
414,paramonga,-10.6667,-77.8333,76.95,71,12,8.99,PE,1675802268
415,big rapids,43.6981,-85.4837,38.7,78,100,16.11,US,1675802269
416,evensk,61.95,159.2333,-23.03,75,74,8.68,RU,1675802269
417,nizhniy tsasuchey,50.5167,115.1333,0.46,92,8,8.14,RU,1675802269
418,chahal,15.75,-89.5667,83.1,53,86,4.68,GT,1675802270
419,labuhan,-6.8844,112.2051,75.9,89,100,8.03,ID,1675801960
420,mogadishu,2.0371,45.3438,76.69,86,54,19.66,SO,1675802270
421,san cristobal,7.7669,-72.225,82.29,41,32,4.21,VE,1675801980
422,muzhi,65.3667,64.6667,0.61,92,95,10.76,RU,1675802271
423,nouadhibou,20.931,-17.0347,64.38,63,0,18.41,MR,1675802271
424,dalhousie,32.5333,75.9833,34.14,47,2,10.2,IN,1675802272
425,wau,7.7029,27.9953,78.71,16,12,5.37,SS,1675802272
426,gamba,-2.65,10.0,78.24,79,99,2.17,GA,1675802272
427,broome,42.2506,-75.833,42.46,63,20,13.8,US,1675802273
428,namibe,-15.1961,12.1522,71.38,74,71,9.62,AO,1675802160
429,havelock,34.8791,-76.9013,66.16,50,0,9.22,US,1675802273
430,ibanda,-2.7974,32.4746,67.3,74,77,4.94,TZ,1675802274
431,soure,-0.7167,-48.5233,78.69,84,83,11.65,BR,1675802274
432,sovetskiy,61.3614,63.5842,-17.84,100,98,3.53,RU,1675802274
433,tessalit,20.1986,1.0114,75.15,14,96,2.46,ML,1675802275
434,riyadh,24.6877,46.7219,60.94,34,88,8.77,SA,1675802275
435,okhotsk,59.3833,143.3,-13.29,86,98,9.57,RU,1675802275
436,quelimane,-17.8786,36.8883,78.01,90,98,5.23,MZ,1675801966
437,birao,10.2849,22.7882,76.03,14,75,9.31,CF,1675802216
438,conceicao do araguaia,-8.2578,-49.2647,79.61,85,98,2.73,BR,1675802276
439,tuatapere,-46.1333,167.6833,51.31,81,68,13.58,NZ,1675801935
440,fougamou,-1.2154,10.5838,75.18,95,67,1.1,GA,1675802276
441,cidreira,-30.1811,-50.2056,77.79,69,11,9.91,BR,1675801973
442,russell,32.3502,-85.1999,72.55,35,69,8.05,US,1675802277
443,turbat,26.0023,63.044,67.33,39,2,2.04,PK,1675802277
444,orchard homes,46.8633,-114.0484,47.28,55,100,6.91,US,1675802277
445,ketchikan,55.3422,-131.6461,37.38,93,75,6.91,US,1675802105
446,konevo,62.1215,39.3192,27.97,91,100,10.85,RU,1675802278
447,kloulklubed,7.0419,134.2556,77.5,77,100,18.39,PW,1675802278
448,barkot,30.8167,78.2,44.02,39,0,5.41,IN,1675802278
449,davila,18.4726,120.5763,76.26,83,1,11.97,PH,1675802279
450,naze,28.3667,129.4833,61.72,71,75,11.01,JP,1675802279
451,kieta,-6.2167,155.6333,80.17,83,100,5.23,PG,1675802279
452,vostok,46.4856,135.8833,-1.95,99,100,4.16,RU,1675802280
453,kikwit,-5.041,18.8162,74.61,73,83,2.35,CD,1675802280
454,meulaboh,4.1363,96.1285,75.18,83,100,2.98,ID,1675802280
455,amudat,1.95,34.95,73.54,41,13,5.84,UG,1675802281
456,ahuimanu,21.4447,-157.8378,80.31,81,75,13.8,US,1675802281
457,marawi,7.9986,124.2928,63.12,93,100,1.25,PH,1675802282
458,les cayes,18.2,-73.75,81.79,62,17,10.4,HT,1675802283
459,kochevo,59.5994,54.3125,3.09,98,100,5.59,RU,1675802283
460,martapura,-3.4167,114.85,75.29,94,100,2.3,ID,1675801986
461,vitim,59.4511,112.5578,-5.67,99,100,2.91,RU,1675801926
462,ulagan,50.6321,87.9563,-7.46,95,92,2.46,RU,1675802284
463,barillas,15.8036,-91.3158,71.46,47,7,4.85,GT,1675802285
464,dudinka,69.4058,86.1778,-11.36,100,95,3.85,RU,1675802286
465,ayagoz,47.9714,80.4392,20.12,93,100,7.2,KZ,1675802286
466,kruszwica,52.6756,18.3313,30.15,81,100,1.92,PL,1675802287
467,padampur,29.6833,73.6167,56.8,34,5,5.46,IN,1675802288
468,muisne,0.6,-80.0333,81.34,75,2,9.48,EC,1675802288
469,almaznyy,48.0448,40.045,16.18,86,97,18.61,RU,1675802290
470,hambantota,6.1241,81.1185,76.17,85,97,11.86,LK,1675802146
471,conde,-7.2597,-34.9075,83.66,54,0,14.97,BR,1675802099
472,pucara,-15.9803,-71.4606,44.73,90,97,9.73,PE,1675802293
473,berea,41.3662,-81.8543,55.38,50,75,14.97,US,1675802296
474,piranshahr,36.701,45.1413,25.83,95,54,7.2,IR,1675802296
475,santa cruz,-17.8,-63.1667,85.46,65,75,9.22,BO,1675802297
476,budureasa,46.6667,22.5,18.46,87,62,4.85,RO,1675802298
477,rolla,37.9514,-91.7713,49.23,60,0,5.75,US,1675802298
478,riberalta,-10.9833,-66.1,89.8,58,75,6.91,BO,1675802299
479,kipushi,-11.7667,27.2333,60.58,97,100,3.53,CD,1675802299
480,seoul,37.5683,126.9778,27.84,93,0,2.3,KR,1675802300
481,bato,13.3528,123.3677,71.82,95,100,3.24,PH,1675802301
482,kalmunai,7.4167,81.8167,76.57,87,68,7.74,LK,1675802302
483,launceston,-41.45,147.1667,57.61,70,100,12.66,AU,1675801904
484,igarka,67.4667,86.5833,-4.81,100,95,3.58,RU,1675802304
485,chapais,49.7834,-74.8492,20.98,94,100,13.89,CA,1675802013
486,victor harbor,-35.5667,138.6167,59.68,75,1,8.08,AU,1675802306
487,srednekolymsk,67.45,153.6833,-31.68,99,100,5.37,RU,1675802307
488,aripuana,-9.1667,-60.6333,74.03,98,99,1.7,BR,1675802113
489,bonavista,48.6499,-53.1147,21.99,66,100,20.42,CA,1675802308
490,borujerd,33.8973,48.7516,35.83,72,8,11.92,IR,1675802308
491,laguna,38.421,-121.4238,59.31,61,0,1.99,US,1675801922
492,savannah bight,16.45,-85.85,79.25,80,12,23.0,HN,1675802309
493,shingu,33.7333,135.9833,43.2,85,2,7.07,JP,1675801980
494,nalut,30.3333,10.85,61.47,34,100,15.43,LY,1675802309
495,ahipara,-35.1667,173.1667,68.61,64,97,6.49,NZ,1675802310
496,dolinsk,47.35,142.8,8.06,96,86,2.66,RU,1675802310
497,duminichi,53.9345,35.1099,7.39,99,67,1.05,RU,1675802311
498,newport,51.5877,-2.9984,41.11,85,13,1.28,GB,1675802279
499,lagoa,39.05,-27.9833,56.16,58,100,17.34,PT,1675802315
500,iquitos,-3.7481,-73.2472,80.64,83,40,8.05,PE,1675802251
501,peniche,39.3558,-9.3811,51.46,70,5,8.55,PT,1675801976
502,gao,16.6362,1.637,79.93,13,88,9.93,ML,1675802321
503,deputatskiy,69.3,139.9,-46.77,99,58,4.27,RU,1675801984
504,hohhot,40.8106,111.6522,12.49,79,0,6.71,CN,1675802322
505,namatanai,-3.6667,152.4333,79.05,84,100,6.38,PG,1675802322
506,maryborough,-25.5333,152.7,75.6,67,100,8.05,AU,1675802322
507,biltine,14.5333,20.9167,73.13,17,94,18.68,TD,1675802323
508,kudahuvadhoo,2.6708,72.8944,80.56,74,39,8.68,MV,1675801924
509,byron bay,-28.65,153.6167,65.95,70,95,6.15,AU,1675802115
510,miri,4.4148,114.0089,74.75,90,100,4.03,MY,1675802324
511,muros,42.7762,-9.0603,48.09,63,3,19.86,ES,1675801856
512,mandurah,-32.55,115.7,64.9,87,0,8.88,AU,1675802325
513,chandur bazar,21.2417,77.7456,67.77,32,2,7.45,IN,1675802325
514,komsomolskiy,40.4272,71.7189,36.32,80,11,9.22,UZ,1675802287
515,kibuye,-2.0597,29.3482,67.08,71,100,2.86,RW,1675802326
516,batagay,67.6333,134.6333,-56.65,99,46,2.8,RU,1675802326
517,great yarmouth,52.6083,1.7305,38.95,85,52,6.35,GB,1675802326
518,altamira,-3.2033,-52.2064,82.49,78,75,2.3,BR,1675802326
519,coquimbo,-29.9533,-71.3436,67.73,77,75,13.8,CL,1675802230
520,sao gabriel da cachoeira,-0.1303,-67.0892,80.53,93,94,0.81,BR,1675802327
521,kaspiysk,42.8816,47.6392,28.58,74,40,31.0,RU,1675802327
522,ucluelet,48.9329,-125.5528,48.51,92,26,5.99,CA,1675802328
523,acajutla,13.5928,-89.8275,85.64,51,15,8.05,SV,1675802328
524,kahului,20.8947,-156.47,79.97,77,40,19.57,US,1675801849
525,pathein,16.7833,94.7333,67.08,70,44,6.91,MM,1675802328
526,nzega,-2.479,29.5564,57.52,81,100,3.18,RW,1675802329
527,cayenne,4.9333,-52.3333,82.44,74,40,14.97,GF,1675801614
528,koungou,-12.7336,45.2042,80.31,83,0,3.44,YT,1675802329
529,inuvik,68.3499,-133.7218,-24.74,68,100,3.44,CA,1675802330
530,bartica,6.4,-58.6167,84.52,71,36,6.31,GY,1675802330
531,banda aceh,5.5577,95.3222,77.59,84,98,6.22,ID,1675802274
532,caohai,26.8661,104.2841,38.28,94,39,2.06,CN,1675802331
533,dhali,10.5,77.1667,68.61,65,10,2.55,IN,1675802331
534,high level,58.5169,-117.136,32.11,55,20,10.36,CA,1675802331
535,arawa,-6.2132,155.5367,78.62,89,100,2.77,PG,1675802332
536,neuquen,-38.9516,-68.0591,97.95,8,0,12.08,AR,1675802048
537,tilichiki,60.4667,166.1,-27.53,92,41,9.84,RU,1675801860
538,pundaguitan,6.3711,126.1689,79.2,76,76,14.61,PH,1675802333
539,takoradi,4.8845,-1.7554,79.61,86,13,7.05,GH,1675802333
540,minas de barroteran,27.6333,-101.2833,77.54,20,4,20.2,MX,1675802333
541,chodziez,52.995,16.9198,26.31,91,15,2.95,PL,1675802334
542,serov,59.6033,60.5787,-6.95,99,61,3.6,RU,1675802334
543,santa marinella,42.0345,11.8536,37.71,59,0,5.28,IT,1675802334
544,aksha,50.2814,113.2867,-3.32,97,22,4.0,RU,1675802141
545,sao joao da barra,-21.6403,-41.0511,82.49,87,100,5.64,BR,1675802335
546,walvis bay,-22.9575,14.5053,67.15,82,35,6.91,NA,1675802335
547,peleduy,59.6289,112.7406,-8.25,100,100,2.13,RU,1675802336
548,ormara,25.2088,64.6357,70.81,69,1,8.1,PK,1675802336
549,paranavai,-23.0731,-52.4653,82.9,65,42,3.2,BR,1675802337
550,bara,10.3744,10.7288,77.5,19,27,11.36,NG,1675801940
551,kpandae,8.4689,-0.0113,87.75,42,98,4.47,GH,1675802337
552,talaya,61.3833,152.75,-41.48,100,100,1.16,RU,1675802253
553,wuwei,37.9281,102.6414,28.71,47,100,5.17,CN,1675802338
554,sena madureira,-9.0656,-68.6569,83.82,66,74,2.26,BR,1675802338
555,raudeberg,61.9875,5.1352,42.87,76,65,25.57,NO,1675802247
556,belen,36.4891,36.2233,32.61,59,47,6.87,TR,1675802339
557,daru,-9.0763,143.2092,75.69,93,100,10.94,PG,1675802339
558,whitehorse,60.7161,-135.0538,23.77,66,40,16.11,CA,1675802339
559,shetpe,44.1667,52.1167,38.12,72,100,17.52,KZ,1675802340
560,boyuibe,-20.4167,-63.2833,78.42,66,99,3.58,BO,1675802340
561,kavaratti,10.5669,72.642,79.92,71,95,11.65,IN,1675801898
562,svencionys,55.15,26.1667,25.02,88,96,5.53,LT,1675802341
563,ures,29.4333,-110.4,68.14,13,0,7.07,MX,1675802341
564,aykhal,66.0,111.5,-36.85,100,100,3.47,RU,1675802342
565,kokoda,-8.8785,147.7407,75.38,90,100,4.74,PG,1675802346
566,plettenberg bay,-34.0527,23.3716,67.37,86,100,2.55,ZA,1675802214
567,starokucherganovka,46.3248,47.9555,26.53,86,100,20.13,RU,1675802361
568,ossora,59.2353,163.0719,-15.59,86,99,5.44,RU,1675802363
569,saint-joseph,-21.3667,55.6167,77.38,82,81,13.2,RE,1675802364
570,vilyuysk,63.7553,121.6247,-38.61,100,100,0.49,RU,1675801969
571,dunmore town,25.5,-76.65,73.67,62,4,18.01,BS,1675802365
572,orodara,10.9492,-4.9342,81.52,17,84,4.09,BF,1675802365
573,mareeba,-17.0,145.4333,75.92,90,79,0.63,AU,1675802106
574,port augusta,-32.5,137.7667,73.29,32,0,4.99,AU,1675802295
575,marfino,55.7028,37.3822,21.45,73,75,8.95,RU,1675802368
576,ranot,7.7777,100.3213,78.22,79,60,6.82,TH,1675802370
577,anloga,5.7947,0.8973,81.37,81,57,11.3,GH,1675802370
578,maniitsoq,65.4167,-52.9,-2.34,91,97,8.95,GL,1675802371
579,ingleside,27.8778,-97.2117,77.23,100,0,14.97,US,1675802371
580,biscarrosse,44.3945,-1.1672,46.35,66,100,9.22,FR,1675802373
581,verkhnyaya inta,65.9811,60.3094,15.44,81,100,22.35,RU,1675802376
582,garzon,2.1959,-75.6278,81.27,57,77,3.98,CO,1675802377
583,yatsuo,36.5667,137.1333,40.23,79,100,1.99,JP,1675802377
584,perelyub,51.8667,50.3667,4.69,95,13,10.22,RU,1675802378
585,suntar,62.1444,117.6319,-31.61,98,100,1.32,RU,1675802131
